Station Name,Current Output (MW),Region,Most Recent Output Time (AEST),Current % of Max Cap,Current % of Reg Cap,Max Cap (MW),Reg Cap (MW),Max ROC/Min,Unit Size (MW),Physical Unit No.,Participant,Dispatch Type,Category,Classification,Fuel Source - Primary,Fuel Source - Descriptor,Technology Type - Primary,Technology Type - Descriptor,Aggregation,DUID,Lat,Lon
Butlers Gorge Power Station,8.399999,TAS1,2022-07-01T11:05:00+0000,56,58.33,15,14.4,,14.4,1,Hydro-Electric Corporation trading as Hydro Tasmania,Generator,Market,Non-Scheduled,Hydro,Water,Renewable,Hydro - Gravity,N,BUTLERSG,-42.266898,146.261758
Capital Wind Farm,51.376007,NSW1,2022-07-01T11:05:00+0000,36.7,36.7,140,140,,2,Jan-67,Infigen Energy Markets Pty Limited,Generator,Market,Non-Scheduled,Wind,Wind,Renewable,Wind - Onshore,N,CAPTL_WF,-35.16603062,149.5185686
Cathedral Rocks Wind Farm,3.6,SA1,2022-07-01T11:05:00+0000,5.45,5.45,66,66,,2,Jan-33,Cathedral Rocks Wind Farm Pty Ltd,Generator,Market,Non-Scheduled,Wind,Wind,Renewable,Wind - Onshore,N,CATHROCK,-34.850861,135.585172
Challicum Hills Wind Farm,12.6,VIC1,2022-07-01T11:05:00+0000,23.77,24,53,52.5,,1.5,Jan-35,Pacific Hydro Challicum Hills Pty Ltd,Generator,Non-Market,Non-Scheduled,Wind,Wind,Renewable,Wind - Onshore,Y,CHALLHWF,-37.38978902,143.1139711
Cluny Power Station,11.205768,TAS1,2022-07-01T11:05:00+0000,58.98,65.92,19,17,,17,1,Hydro-Electric Corporation trading as Hydro Tasmania,Generator,Market,Non-Scheduled,Hydro,Water,Renewable,Hydro - Gravity,N,CLUNY,-42.506423,146.681162
Cullerin Range Wind Farm,23.940001,NSW1,2022-07-01T11:05:00+0000,79.8,79.8,30,30,,2,15-Jan,Origin Energy Electricity Limited,Generator,Market,Non-Scheduled,Wind,Wind,Renewable,Wind - Onshore,N,CULLRGWF,-34.80498162,149.4001296
Eraring Power Station,0,NSW1,2022-07-01T11:05:00+0000,0,0,56,41.5,,41.5,1,Origin Energy Electricity Limited,Generator,Market,Non-Scheduled,Fossil,Diesel,Combustion,Open Cycle Gas turbines (OCGT),N,ERGT01,-33.06174875,151.5223301
Broken Hill Gas Turbines,0,NSW1,2022-07-01T11:05:00+0000,0,0,50,50,,25,2-Jan,Essential Energy,Generator,Market,Non-Scheduled,Fossil,Diesel,Combustion,Open Cycle Gas turbines (OCGT),N,GB01,-31.986296,141.420334
Lake Bonney Wind Farm,0,SA1,2022-07-01T11:05:00+0000,0,0,81,80.5,,1.75,Jan-46,Lake Bonney Wind Power Pty Ltd,Generator,Market,Non-Scheduled,Wind,Wind,Renewable,Wind - Onshore,N,LKBONNY1,-37.77134988,140.3980839
Mortons Lane Wind Farm,2.16,VIC1,2022-07-01T11:05:00+0000,10.8,10.8,20,20,,1.5,13-Jan,Mortons Lane Windfarm Pty Limited,Generator,Market,Non-Scheduled,Wind,Wind,Renewable,Wind - Onshore,N,MLWF1,-37.835,142.45
Mt Millar Wind Farm,14.8,SA1,2022-07-01T11:05:00+0000,21.14,21.14,70,70,,2,Jan-35,Mt Millar Wind Farm Pty Ltd,Generator,Market,Non-Scheduled,Wind,Wind,Renewable,Wind - Onshore,N,MTMILLAR,-33.626728,136.704562
Paloona Power Station,21.719999,TAS1,2022-07-01T11:05:00+0000,65.82,77.57,33,28,,28,1,Hydro-Electric Corporation trading as Hydro Tasmania,Generator,Market,Non-Scheduled,Hydro,Water,Renewable,Hydro - Gravity,N,PALOONA,-41.282616,146.248964
Portland Wind Farm,7.3,VIC1,2022-07-01T11:05:00+0000,4.93,4.93,148,148,,2,Jan-74,Pacific Hydro Portland Wind Farm Pty Ltd,Generator,Non-Market,Non-Scheduled,Wind,Wind,Renewable,Wind - Onshore,Y,PORTWF,-38.412,141.543
Repulse Power Station,18.084383,TAS1,2022-07-01T11:05:00+0000,62.36,64.59,29,28,,28,1,Hydro-Electric Corporation trading as Hydro Tasmania,Generator,Market,Non-Scheduled,Hydro,Water,Renewable,Hydro - Gravity,N,REPULSE,-42.507695,146.64696
Rowallan Power Station,8.0372,TAS1,2022-07-01T11:05:00+0000,73.07,76.54,11,10.5,,10.5,1,Hydro-Electric Corporation trading as Hydro Tasmania,Generator,Market,Non-Scheduled,Hydro,Water,Renewable,Hydro - Gravity,N,ROWALLAN,-41.729523,146.217593
Rocky Point Cogeneration Plant,-0.1,QLD1,2022-07-01T11:05:00+0000,-0.33,-0.33,30,30,,30,1,FPC 30 Limited,Generatir,Market,Non-Scheduled,Renewable/ Biomass / Waste,Bagasse,Combustion,Steam Sub-Critical,N,RPCG,-27.73368,153.32694
Starfish Hill Wind Farm,0.6998,SA1,2022-07-01T11:05:00+0000,2,2.03,35,34.5,,1.5,23-Jan,Starfish Hill Wind Farm Pty Ltd,Generator,Market,Non-Scheduled,Wind,Wind,Renewable,Wind - Onshore,N,STARHLWF,-35.567765,138.143238
Waubra Wind Farm,64.239998,VIC1,2022-07-01T11:05:00+0000,33.46,33.46,192,192,,1.5,1-128,Pyrenees Wind Energy Development Pty Ltd,Generator,Market,Non-Scheduled,Wind,Wind,Renewable,Wind - Onshore,Y,WAUBRAWF,-37.3559815,143.605915
Woolnorth Studland Bay / Bluff Point Wind Farm,1.25,TAS1,2022-07-01T11:05:00+0000,0.89,0.89,140,140,,"1.75, 3","WBP 1-37, WSB 1-25",Hydro-Electric Corporation trading as Hydro Tasmania,Generator,Market,Non-Scheduled,Wind,Wind,Renewable,Wind - Onshore,Y,WOOLNTH1,-40.778754,144.736204
Wattle Point Wind Farm,0.64,SA1,2022-07-01T11:05:00+0000,0.7,0.71,91,90.75,,1.65,Jan-55,AGL Hydro Partnership,Generator,Market,Non-Scheduled,Wind,Wind,Renewable,Wind - Onshore,N,WPWF,-35.121355,137.716618
Yambuk Wind Farm,7,VIC1,2022-07-01T11:05:00+0000,23.33,23.33,30,30,,1.5,20-Jan,Energy Pacific (Vic) Pty Ltd,Generator,Market,Non-Scheduled,Wind,Wind,Renewable,Wind - Onshore,N,YAMBUKWF,-38.30835521,142.0100326
Hallett Power Station,32.05971,SA1,2022-07-01T11:05:00+0000,14.57,17.81,220,180,44,"16.8, 25.2, 16.8, 17.9","1-4, 5-6, 7-10, 11-12",EnergyAustralia Pty Ltd,Generator,Market,Scheduled,Fossil,Natural Gas / Diesel,Combustion,Open Cycle Gas Turbine (OCGT),Y,AGLHAL,-33.348652,138.751659
Somerton Power Station,119.9,VIC1,2022-07-01T11:05:00+0000,70.53,74.94,170,160,30,40,4-Jan,AGL Hydro Partnership,Generator,Market,Scheduled,Fossil,Natural Gas,Combustion,Open Cycle Gas turbines (OCGT),Y,AGLSOM,-37.631822,144.953077
Barcaldine Power Station,0,QLD1,2022-07-01T11:05:00+0000,0,0,37,37,3,37,1,Ergon Energy Queensland Pty Ltd,Generator,Market,Scheduled,Fossil,Natural Gas,Combustion,Combined Cycle Gas Turbine (CCGT),N,BARCALDN,-23.552452,145.314186
Barron Gorge Power Station,0,QLD1,2022-07-01T11:05:00+0000,0,0,33,30,4,30,1,Stanwell Corporation Limited,Generator,Market,Scheduled,Hydro,Water,Renewable,Run of River,N,BARRON-1,-16.850199,145.646495
Barron Gorge Power Station,28.32,QLD1,2022-07-01T11:05:00+0000,85.82,94.4,33,30,4,30,2,Stanwell Corporation Limited,Generator,Market,Scheduled,Hydro,Water,Renewable,Run of River,N,BARRON-2,-16.850199,145.646495
Bastyan Power Station,80.96001,TAS1,2022-07-01T11:05:00+0000,92,101.33,88,79.9,40,79.9,1,Hydro-Electric Corporation trading as Hydro Tasmania,Generator,Market,Scheduled,Hydro,Water,Renewable,Hydro - Gravity,N,BASTYAN,-41.735983,145.532112
Bell Bay Three Power Station,0,TAS1,2022-07-01T11:05:00+0000,0,0,49,35,10,35,1,Aurora Energy (Tamar Valley) Pty Ltd trading as AETV Power,Generator,Market,Scheduled,Fossil,Natural Gas,Combustion,Open Cycle Gas turbines (OCGT),N,BBTHREE1,-41.141944,146.9025
Bell Bay Three Power Station,0,TAS1,2022-07-01T11:05:00+0000,0,0,49,35,10,35,2,Aurora Energy (Tamar Valley) Pty Ltd trading as AETV Power,Generator,Market,Scheduled,Fossil,Natural Gas,Combustion,Open Cycle Gas turbines (OCGT),N,BBTHREE2,-41.141944,146.9025
Bell Bay Three Power Station,0,TAS1,2022-07-01T11:05:00+0000,0,0,49,35,10,35,3,Aurora Energy (Tamar Valley) Pty Ltd trading as AETV Power,Generator,Market,Scheduled,Fossil,Natural Gas,Combustion,Open Cycle Gas turbines (OCGT),N,BBTHREE3,-41.141944,146.9025
Bairnsdale Power Station,44.22,VIC1,2022-07-01T11:05:00+0000,94.09,94.09,47,47,4,47,1,Aurora Energy (Tamar Valley) Pty Ltd trading as AETV Power,Generator,Market,Scheduled,Fossil,Natural Gas,Combustion,Open Cycle Gas turbines (OCGT),N,BDL01,-37.842859,147.56393
Bairnsdale Power Station,0,VIC1,2022-07-01T11:05:00+0000,0,0,47,47,4,47,2,Aurora Energy (Tamar Valley) Pty Ltd trading as AETV Power,Generator,Market,Scheduled,Fossil,Natural Gas,Combustion,Open Cycle Gas turbines (OCGT),N,BDL02,-37.842859,147.56393
Blowering Power Station,61.4,NSW1,2022-07-01T11:05:00+0000,76.75,87.71,80,70,10,70,1,Snowy Hydro Limited,Generator,Market,Scheduled,Hydro,Water,Renewable,Hydro - Gravity,N,BLOWERNG,-35.398601,148.246272
The Bluff Wind Farm,9.8,SA1,2022-07-01T11:05:00+0000,18.67,18.67,52.5,52.5,30,2.1,25-Jan,AGL Hydro Partnership,Generator,Market,Semi-Scheduled,Wind,Wind,Renewable,Wind - Onshore,N,BLUFF1,-33.369331,138.982476
Braemar Power Station,179.8,QLD1,2022-07-01T11:05:00+0000,103.93,107.02,173,168,43,168,1,Braemar Power Project Pty Ltd,Generator,Market,Scheduled,Fossil,Coal Seam Methane,Combustion,Open Cycle Gas turbines (OCGT),N,BRAEMAR1,-27.110934,150.905337
Braemar Power Station,0,QLD1,2022-07-01T11:05:00+0000,0,0,173,168,43,168,2,Braemar Power Project Pty Ltd,Generator,Market,Scheduled,Fossil,Coal Seam Methane,Combustion,Open Cycle Gas turbines (OCGT),N,BRAEMAR2,-27.110934,150.905337
Braemar Power Station,0,QLD1,2022-07-01T11:05:00+0000,0,0,173,168,43,168,3,Braemar Power Project Pty Ltd,Generator,Market,Scheduled,Fossil,Coal Seam Methane,Combustion,Open Cycle Gas turbines (OCGT),N,BRAEMAR3,-27.110934,150.905337
Braemar 2 Power Station,0.13092,QLD1,2022-07-01T11:05:00+0000,0.08,0.08,173,173,35,173,5,NewGen Braemar 2 Partnership,Generator,Market,Scheduled,Fossil,Coal Seam Methane,Combustion,Open Cycle Gas turbines (OCGT),N,BRAEMAR5,-27.11281127,150.9048783
Braemar 2 Power Station,0,QLD1,2022-07-01T11:05:00+0000,0,0,173,173,35,173,6,NewGen Braemar 2 Partnership,Generator,Market,Scheduled,Fossil,Coal Seam Methane,Combustion,Open Cycle Gas turbines (OCGT),N,BRAEMAR6,-27.11281127,150.9048783
Braemar 2 Power Station,160.98494,QLD1,2022-07-01T11:05:00+0000,93.05,93.05,173,173,35,173,7,NewGen Braemar 2 Partnership,Generator,Market,Scheduled,Fossil,Coal Seam Methane,Combustion,Open Cycle Gas turbines (OCGT),N,BRAEMAR7,-27.11281127,150.9048783
Bayswater Power Station,659.75,NSW1,2022-07-01T11:05:00+0000,94.25,99.96,700,660,140,660,1,AGL Macquarie Pty Limited,Generator,Market,Scheduled,Fossil,Black Coal,Combustion,Steam Sub-Critical,N,BW01,-32.39527,150.94913
Bayswater Power Station,678.25,NSW1,2022-07-01T11:05:00+0000,96.89,102.77,700,660,140,660,2,AGL Macquarie Pty Limited,Generator,Market,Scheduled,Fossil,Black Coal,Combustion,Steam Sub-Critical,N,BW02,-32.39527,150.94913
Bayswater Power Station,0,NSW1,2022-07-01T11:05:00+0000,0,0,700,660,140,660,3,AGL Macquarie Pty Limited,Generator,Market,Scheduled,Fossil,Black Coal,Combustion,Steam Sub-Critical,N,BW03,-32.39527,150.94913
Bayswater Power Station,655.625,NSW1,2022-07-01T11:05:00+0000,93.66,99.34,700,660,140,660,4,AGL Macquarie Pty Limited,Generator,Market,Scheduled,Fossil,Black Coal,Combustion,Steam Sub-Critical,N,BW04,-32.39527,150.94913
Callide B Power Station,330.30002,QLD1,2022-07-01T11:05:00+0000,85.79,94.37,385,350,77,350,1,CS Energy Limited,Generator,Market,Scheduled,Fossil,Black Coal,Combustion,Steam Sub-Critical,N,CALL_B_1,-24.34488,150.619749
Callide B Power Station,0,QLD1,2022-07-01T11:05:00+0000,0,0,385,350,77,350,2,CS Energy Limited,Generator,Market,Scheduled,Fossil,Black Coal,Combustion,Steam Sub-Critical,N,CALL_B_2,-24.34488,150.619749
Cethana Power Station,81.659,TAS1,2022-07-01T11:05:00+0000,81.66,96.07,100,85,40,85,1,Hydro-Electric Corporation trading as Hydro Tasmania,Generator,Market,Scheduled,Hydro,Water,Renewable,Hydro - Gravity,N,CETHANA,-41.480237,146.134849
Colongra Power Station,178.11626,NSW1,2022-07-01T11:05:00+0000,98.41,98.41,181,181,34,181,1,Snowy Hydro Limited,Generator,Market,Scheduled,Fossil,Natural Gas,Combustion,Open Cycle Gas turbines (OCGT),N,CG1,-33.209869,151.544785
Colongra Power Station,177.10376,NSW1,2022-07-01T11:05:00+0000,97.85,97.85,181,181,34,181,2,Snowy Hydro Limited,Generator,Market,Scheduled,Fossil,Natural Gas,Combustion,Open Cycle Gas turbines (OCGT),N,CG2,-33.209869,151.544785
Colongra Power Station,178.1575,NSW1,2022-07-01T11:05:00+0000,98.43,98.43,181,181,34,181,3,Snowy Hydro Limited,Generator,Market,Scheduled,Fossil,Natural Gas,Combustion,Open Cycle Gas turbines (OCGT),N,CG3,-33.209869,151.544785
Colongra Power Station,0,NSW1,2022-07-01T11:05:00+0000,0,0,181,181,34,181,4,Snowy Hydro Limited,Generator,Market,Scheduled,Fossil,Natural Gas,Combustion,Open Cycle Gas turbines (OCGT),N,CG4,-33.209869,151.544785
Clements Gap Wind Farm,6.19501,SA1,2022-07-01T11:05:00+0000,10.87,10.87,57,57,12,2,27-Jan,Pacific Hydro Clements Gap Pty Ltd,Generator,Market,Semi-Scheduled,Wind,Wind,Renewable,Wind - Onshore,N,CLEMGPWF,-33.50856771,138.1191752
Callide Power Plant,380.05002,QLD1,2022-07-01T11:05:00+0000,76.01,90.49,500,420,100,420,3,Callide Power Trading Pty Limited,Generator,Market,Scheduled,Fossil,Black Coal,Combustion,Steam Super Critical,N,CPP_3,-24.334025,150.627973
Callide Power Plant,0,QLD1,2022-07-01T11:05:00+0000,0,0,500,420,100,420,4,Callide Power Trading Pty Limited,Generator,Market,Scheduled,Fossil,Black Coal,Combustion,Steam Super Critical,N,CPP_4,-24.334025,150.627973
Condamine Power Station A,71.08562,QLD1,2022-07-01T11:05:00+0000,49.37,49.37,144,144,29,"43, 57","1-2, 3",QGC Sales Qld Pty Ltd,Generator,Market,Scheduled,Fossil,Natural Gas,Combustion,Combined Cycle Gas Turbine (CCGT),Y,CPSA,-26.66822221,150.2700145
Dartmouth Power Station,0,VIC1,2022-07-01T11:05:00+0000,0,0,185,150,60,150,1,AGL Hydro Partnership,Generator,Market,Scheduled,Hydro,Water,Renewable,Hydro - Gravity,N,DARTM1,-36.556429,147.52058
Darling Downs Power Station,482.68823,QLD1,2022-07-01T11:05:00+0000,72.8,74.95,663,644,10,"280, 121","0, 1-3",Origin Energy Electricity Limited,Generator,Market,Scheduled,Fossil,Natural Gas,Combustion,Combined Cycle Gas Turbine (CCGT),Y,DDPS1,-27.11689141,150.894217
Devils Gate Power Station,63.62499,TAS1,2022-07-01T11:05:00+0000,97.88,106.04,65,60,40,60,1,Hydro-Electric Corporation trading as Hydro Tasmania,Generator,Market,Scheduled,Hydro,Water,Renewable,Hydro - Gravity,N,DEVILS_G,-41.350467,146.263167
Dry Creek Gas Turbine Station,0,SA1,2022-07-01T11:05:00+0000,0,0,57,52,12,52,1,Synergen Power Pty Limited,Generator,Market,Scheduled,Fossil,Natural Gas,Combustion,Open Cycle Gas turbines (OCGT),N,DRYCGT1,-34.847463,138.581758
Dry Creek Gas Turbine Station,0,SA1,2022-07-01T11:05:00+0000,0,0,57,52,12,52,2,Synergen Power Pty Limited,Generator,Market,Scheduled,Fossil,Natural Gas,Combustion,Open Cycle Gas turbines (OCGT),N,DRYCGT2,-34.847463,138.581758
Dry Creek Gas Turbine Station,0,SA1,2022-07-01T11:05:00+0000,0,0,57,52,12,52,3,Synergen Power Pty Limited,Generator,Market,Scheduled,Fossil,Natural Gas,Combustion,Open Cycle Gas turbines (OCGT),N,DRYCGT3,-34.847463,138.581758
Eildon Power Station,0,VIC1,2022-07-01T11:05:00+0000,0,0,60,60,20,60,1,AGL Hydro Partnership,Generator,Market,Scheduled,Hydro,Water,Renewable,Hydro - Gravity,Y,EILDON1,-37.222005,145.921452
Eildon Power Station,0,VIC1,2022-07-01T11:05:00+0000,0,0,60,60,20,"60, 7.5","2, 2b",AGL Hydro Partnership,Generator,Market,Scheduled,Hydro,Water,Renewable,Hydro - Gravity,Y,EILDON2,-37.222005,145.921452
Eraring Power Station,664.5,NSW1,2022-07-01T11:05:00+0000,88.6,92.29,750,720,20,720,1,Origin Energy Electricity Limited,Generator,Market,Scheduled,Fossil,Black Coal,Combustion,Steam Sub-Critical,N,ER01,-33.06174875,151.5223301
Eraring Power Station,668.375,NSW1,2022-07-01T11:05:00+0000,89.12,92.83,750,720,20,720,2,Origin Energy Electricity Limited,Generator,Market,Scheduled,Fossil,Black Coal,Combustion,Steam Sub-Critical,N,ER02,-33.06174875,151.5223301
Eraring Power Station,667.125,NSW1,2022-07-01T11:05:00+0000,88.95,92.66,750,720,20,720,3,Origin Energy Electricity Limited,Generator,Market,Scheduled,Fossil,Black Coal,Combustion,Steam Sub-Critical,N,ER03,-33.06174875,151.5223301
Eraring Power Station,668.67505,NSW1,2022-07-01T11:05:00+0000,89.16,92.87,750,720,20,720,4,Origin Energy Electricity Limited,Generator,Market,Scheduled,Fossil,Black Coal,Combustion,Steam Sub-Critical,N,ER04,-33.06174875,151.5223301
Fisher Power Station,31.03,TAS1,2022-07-01T11:05:00+0000,67.46,71.83,46,43.2,30,43.2,1,Hydro-Electric Corporation trading as Hydro Tasmania,Generator,Market,Scheduled,Hydro,Water,Renewable,Hydro - Gravity,N,FISHER,-41.67324,146.268518
Gordon Power Station,264.81232,TAS1,2022-07-01T11:05:00+0000,58.85,61.3,450,432,180,144,3-Jan,Hydro-Electric Corporation trading as Hydro Tasmania,Generator,Market,Scheduled,Hydro,Water,Renewable,Hydro - Gravity,Y,GORDON,-42.738642,145.981165
Gladstone Power Station,156.625,QLD1,2022-07-01T11:05:00+0000,54.96,55.94,285,280,57,280,1,CS Energy Limited,Generator,Market,Scheduled,Fossil,Black Coal,Combustion,Steam Sub-Critical,N,GSTONE1,-23.850753,151.218653
Gladstone Power Station,149.97499,QLD1,2022-07-01T11:05:00+0000,52.62,53.56,285,280,57,280,2,CS Energy Limited,Generator,Market,Scheduled,Fossil,Black Coal,Combustion,Steam Sub-Critical,N,GSTONE2,-23.850753,151.218653
Gladstone Power Station,0,QLD1,2022-07-01T11:05:00+0000,0,0,285,280,57,280,3,CS Energy Limited,Generator,Market,Scheduled,Fossil,Black Coal,Combustion,Steam Sub-Critical,N,GSTONE3,-23.850753,151.218653
Gladstone Power Station,166.25,QLD1,2022-07-01T11:05:00+0000,58.33,59.38,285,280,57,280,4,CS Energy Limited,Generator,Market,Scheduled,Fossil,Black Coal,Combustion,Steam Sub-Critical,N,GSTONE4,-23.850753,151.218653
Gladstone Power Station,149.8,QLD1,2022-07-01T11:05:00+0000,52.56,53.5,285,280,57,280,5,CS Energy Limited,Generator,Market,Scheduled,Fossil,Black Coal,Combustion,Steam Sub-Critical,N,GSTONE5,-23.850753,151.218653
Gladstone Power Station,200.02499,QLD1,2022-07-01T11:05:00+0000,70.18,71.44,285,280,57,280,6,CS Energy Limited,Generator,Market,Scheduled,Fossil,Black Coal,Combustion,Steam Sub-Critical,N,GSTONE6,-23.850753,151.218653
Gullen Range Wind Farm,91.24588,NSW1,2022-07-01T11:05:00+0000,53.05,54.97,172,166,34,1.5,1-17.,New Gullen Range Wind Farm Pty Ltd,Generator,Market,Semi-Scheduled,Wind,Wind,Renewable,Wind - Onshore,Y,GULLRWF1,-34.614456,149.459531
Gunning Wind Farm,27.13857,NSW1,2022-07-01T11:05:00+0000,57.74,57.74,47,47,47,2.1,31-Jan,Gunning Wind Energy Developments Pty Ltd,Generator,Market,Semi-Scheduled,Wind,Wind,Wind,Wind - Onshore,N,GUNNING1,-34.6958309,149.3831752
Guthega Power Station,32.5,NSW1,2022-07-01T11:05:00+0000,40.62,54.17,80,60,20,30,"1, 2",Snowy Hydro Limited,Generator,Market,Scheduled,Hydro,Water,Renewable,Hydro - Gravity,Y,GUTHEGA,-36.350098,148.413528
Hallett 1 Wind Farm,10.57,SA1,2022-07-01T11:05:00+0000,11.13,11.19,95,94.5,30,2.1,Jan-45,AGL Hydro Partnership,Generator,Market,Semi-Scheduled,Wind,Wind,Renewable,Wind - Onshore,N,HALLWF1,-33.348652,138.751659
Hallett 2 Wind Farm,1.62,SA1,2022-07-01T11:05:00+0000,2.28,2.27,71,71.4,30,2.1,Jan-34,AGL Hydro Partnership,Generator,Market,Semi-Scheduled,Wind,Wind,Renewable,Wind - Onshore,N,HALLWF2,-33.348652,138.751659
Hume Power Station,49.5369,NSW1,2022-07-01T11:05:00+0000,70.77,170.82,70,29,10,29,2-Jan,GSP Energy Pty Ltd,Generator,Market,Scheduled,Hydro,Water,Renewable,Hydro - Gravity,N,HUMENSW,-36.106619,147.032622
Hume Power Station,0,VIC1,2022-07-01T11:05:00+0000,0,0,70,29,10,29,2-Jan,GSP Energy Pty Ltd,Generator,Market,Scheduled,Hydro,Water,Renewable,Hydro - Gravity,N,HUMEV,-36.106619,147.032622
John Butters Power Station,110.31297,TAS1,2022-07-01T11:05:00+0000,76.61,76.61,144,144,40,144,1,Hydro-Electric Corporation trading as Hydro Tasmania,Generator,Market,Scheduled,Hydro,Water,Renewable,Hydro - Gravity,N,JBUTTERS,-42.154835,145.534477
"Jeeralang ""A"" Power Station",0,VIC1,2022-07-01T11:05:00+0000,0,0,65,51,23,51,1,Ecogen Energy Pty Ltd,Generator,Market,Scheduled,Fossil,Natural Gas,Combustion,Open Cycle Gas turbines (OCGT),N,JLA01,-38.275325,146.426296
"Jeeralang ""A"" Power Station",0,VIC1,2022-07-01T11:05:00+0000,0,0,65,51,23,51,2,Ecogen Energy Pty Ltd,Generator,Market,Scheduled,Fossil,Natural Gas,Combustion,Open Cycle Gas turbines (OCGT),N,JLA02,-38.275325,146.426296
"Jeeralang ""A"" Power Station",0,VIC1,2022-07-01T11:05:00+0000,0,0,65,51,23,51,3,Ecogen Energy Pty Ltd,Generator,Market,Scheduled,Fossil,Natural Gas,Combustion,Open Cycle Gas turbines (OCGT),N,JLA03,-38.275325,146.426296
"Jeeralang ""A"" Power Station",0,VIC1,2022-07-01T11:05:00+0000,0,0,65,51,23,51,4,Ecogen Energy Pty Ltd,Generator,Market,Scheduled,Fossil,Natural Gas,Combustion,Open Cycle Gas turbines (OCGT),N,JLA04,-38.275325,146.426296
"Jeeralang ""B"" Power Station",0,VIC1,2022-07-01T11:05:00+0000,0,0,100,76,20,76,1,Ecogen Energy Pty Ltd,Generator,Market,Scheduled,Fossil,Natural Gas,Combustion,Open Cycle Gas turbines (OCGT),N,JLB01,-38.274626,146.424923
"Jeeralang ""B"" Power Station",0,VIC1,2022-07-01T11:05:00+0000,0,0,100,76,20,76,2,Ecogen Energy Pty Ltd,Generator,Market,Scheduled,Fossil,Natural Gas,Combustion,Open Cycle Gas turbines (OCGT),N,JLB02,-38.274626,146.424923
"Jeeralang ""B"" Power Station",0,VIC1,2022-07-01T11:05:00+0000,0,0,100,76,20,76,3,Ecogen Energy Pty Ltd,Generator,Market,Scheduled,Fossil,Natural Gas,Combustion,Open Cycle Gas turbines (OCGT),N,JLB03,-38.274626,146.424923
Kareeya Power Station,21.54,QLD1,2022-07-01T11:05:00+0000,97.91,102.57,22,21,5,21,1,Stanwell Corporation Limited,Generator,Market,Scheduled,Hydro,Water,Renewable,Run of River,N,KAREEYA1,-17.767002,145.577865
Kareeya Power Station,21.6475,QLD1,2022-07-01T11:05:00+0000,98.4,103.08,22,21,5,21,2,Stanwell Corporation Limited,Generator,Market,Scheduled,Hydro,Water,Renewable,Run of River,N,KAREEYA2,-17.767002,145.577865
Kareeya Power Station,21.51,QLD1,2022-07-01T11:05:00+0000,97.77,102.43,22,21,5,21,3,Stanwell Corporation Limited,Generator,Market,Scheduled,Hydro,Water,Renewable,Run of River,N,KAREEYA3,-17.767002,145.577865
Kareeya Power Station,21.635,QLD1,2022-07-01T11:05:00+0000,98.34,103.02,22,21,5,21,4,Stanwell Corporation Limited,Generator,Market,Scheduled,Hydro,Water,Renewable,Run of River,N,KAREEYA4,-17.767002,145.577865
Kogan Creek Power Station,712.33588,QLD1,2022-07-01T11:05:00+0000,91.21,95.74,781,744,157,744,1,CS Energy Limited,Generator,Market,Scheduled,Fossil,Black Coal,Combustion,Steam Super Critical,N,KPP_1,-26.91768333,150.7492833
Ladbroke Grove Power Station,1.00E-02,SA1,2022-07-01T11:05:00+0000,0.02,0.02,50,40,10,40,1,Origin Energy Electricity Limited,Generator,Market,Scheduled,Fossil,Natural Gas,Combustion,Open Cycle Gas turbines (OCGT),N,LADBROK1,-37.456673,140.782692
Ladbroke Grove Power Station,2.00E-02,SA1,2022-07-01T11:05:00+0000,0.04,0.05,50,40,10,40,2,Origin Energy Electricity Limited,Generator,Market,Scheduled,Fossil,Natural Gas,Combustion,Open Cycle Gas turbines (OCGT),N,LADBROK2,-37.456673,140.782692
Liddell Power Station,290.66245,NSW1,2022-07-01T11:05:00+0000,52.85,58.13,550,500,110,500,1,AGL Macquarie Pty Limited,Generator,Market,Scheduled,Fossil,Black Coal,Combustion,Steam Sub-Critical,N,LD01,-32.371267,150.97757
Liddell Power Station,350.51248,NSW1,2022-07-01T11:05:00+0000,63.73,70.1,550,500,110,500,2,AGL Macquarie Pty Limited,Generator,Market,Scheduled,Fossil,Black Coal,Combustion,Steam Sub-Critical,N,LD02,-32.371267,150.97757
Liddell Power Station,0,NSW1,2022-07-01T11:05:00+0000,0,0,550,500,110,500,4,AGL Macquarie Pty Limited,Generator,Market,Scheduled,Fossil,Black Coal,Combustion,Steam Sub-Critical,N,LD04,-32.371267,150.97757
Lemonthyme / Wilmot  Power Station,86.96434,TAS1,2022-07-01T11:05:00+0000,101.12,106.57,86,81.6,25,"51, 30.6","L 1, W 1",Hydro-Electric Corporation trading as Hydro Tasmania,Generator,Market,Scheduled,Hydro,Water,Renewable,Hydro - Gravity,Y,LEM_WIL,-41.603763,146.139022
Catagunya / Liapootah / Wayatinah Power Station,141.91156,TAS1,2022-07-01T11:05:00+0000,77.55,83.43,183,170.1,110,"24, 27.9, 12.8","C 1-2, L 1-3, W 1-3",Hydro-Electric Corporation trading as Hydro Tasmania,Generator,Market,Scheduled,Hydro,Water,Renewable,Hydro - Gravity,Y,LI_WY_CA,-42.452381,146.597687
Lake Bonney Stage 2 Windfarm,2.85777,SA1,2022-07-01T11:05:00+0000,1.8,1.8,159,159,32,3,Jan-53,Lake Bonney Wind Power Pty Ltd,Generator,Market,Semi-Scheduled,Wind,Wind,Renewable,Wind - Onshore,N,LKBONNY2,-37.77134988,140.3980839
Lake Bonney Stage 3 Wind Farm,2.06542,SA1,2022-07-01T11:05:00+0000,5.3,5.3,39,39,32,39,13-Jan,Lake Bonney Wind Power Pty Ltd,Generator,Market,Semi-Scheduled,Wind,Wind,Renewable,Wind - Onshore,N,LKBONNY3,-37.77134988,140.3980839
Lake Echo Power Station,0,TAS1,2022-07-01T11:05:00+0000,0,0,34,32.4,15,32.4,1,Hydro-Electric Corporation trading as Hydro Tasmania,Generator,Market,Scheduled,Hydro,Water,Renewable,Hydro - Gravity,N,LK_ECHO,-42.253702,146.620699
Loy Yang B Power Station,586.8418,VIC1,2022-07-01T11:05:00+0000,97.81,117.37,600,500,25,500,1,IPM Australia Limited,Generator,Market,Scheduled,Fossil,Brown Coal,Combustion,Steam Sub-Critical,N,LOYYB1,-38.256447,146.58637
Loy Yang B Power Station,575.56329,VIC1,2022-07-01T11:05:00+0000,95.93,115.11,600,500,25,500,2,IPM Australia Limited,Generator,Market,Scheduled,Fossil,Brown Coal,Combustion,Steam Sub-Critical,N,LOYYB2,-38.256447,146.58637
Loy Yang A Power Station,560,VIC1,2022-07-01T11:05:00+0000,94.92,100,590,560,118,560,1,AGL Loy Yang Marketing Pty Ltd,Generator,Market,Scheduled,Fossil,Brown Coal,Combustion,Steam Sub-Critical,N,LYA1,-38.2536,146.574569
Loy Yang A Power Station,0,VIC1,2022-07-01T11:05:00+0000,0,0,535,530,108,530,2,AGL Loy Yang Marketing Pty Ltd,Generator,Market,Scheduled,Fossil,Brown Coal,Combustion,Steam Sub-Critical,N,LYA2,-38.2536,146.574569
Loy Yang A Power Station,560,VIC1,2022-07-01T11:05:00+0000,94.92,100,590,560,118,560,3,AGL Loy Yang Marketing Pty Ltd,Generator,Market,Scheduled,Fossil,Brown Coal,Combustion,Steam Sub-Critical,N,LYA3,-38.2536,146.574569
Loy Yang A Power Station,558,VIC1,2022-07-01T11:05:00+0000,96.21,99.64,580,560,116,560,4,AGL Loy Yang Marketing Pty Ltd,Generator,Market,Scheduled,Fossil,Brown Coal,Combustion,Steam Sub-Critical,N,LYA4,-38.2536,146.574569
Macarthur Wind Farm,0,VIC1,2022-07-01T11:05:00+0000,0,0,420,420,90,3,1-140,AGL Hydro Partnership,Generator,Market,Semi-Scheduled,Wind,Wind,Renewable,Wind - Onshore,N,MACARTH1,-38.00752684,142.1865101
Mackintosh Power Station,83.95,TAS1,2022-07-01T11:05:00+0000,94.33,105.07,89,79.9,40,79.9,1,Hydro-Electric Corporation trading as Hydro Tasmania,Generator,Market,Scheduled,Hydro,Water,Renewable,Hydro - Gravity,N,MACKNTSH,-41.69975,145.646119
Bogong / Mckay Power Station,2.00E-02,VIC1,2022-07-01T11:05:00+0000,0.01,0.01,300,300,60,"80, 25","B 1-2,  M1-6",AGL Hydro Partnership,Generator,Market,Scheduled,Hydro,Water,Renewable,Hydro - Gravity,Y,MCKAY1,-36.805461,147.228034
Meadowbank Power Station,20.1489,TAS1,2022-07-01T11:05:00+0000,47.97,50.37,42,40,10,40,1,Hydro-Electric Corporation trading as Hydro Tasmania,Generator,Market,Scheduled,Hydro,Water,Renewable,Hydro - Gravity,N,MEADOWBK,-42.611199,146.845676
Mt Mercer Wind Farm,0.8,VIC1,2022-07-01T11:05:00+0000,0.61,0.61,131,131,33,2.05,Jan-64,Mt Mercer Windfarm Pty Ltd,Generator,Market,Semi-Scheduled,Wind,Wind,Renewable,Wind - Onshore,N,MERCER01,-37.841111,143.871111
Mintaro Gas Turbine Station,8.55E-02,SA1,2022-07-01T11:05:00+0000,0.08,0.09,105,90,5,90,1,Synergen Power Pty Limited,Generator,Market,Scheduled,Fossil,Natural Gas,Combustion,Open Cycle Gas turbines (OCGT),N,MINTARO,-33.9031,138.7383
Mortlake Power Station Units,285,VIC1,2022-07-01T11:05:00+0000,101.42,100.71,281,283,13,283,11,Origin Energy Electricity Limited,Generator,Market,Scheduled,Fossil,Natural Gas,Combustion,Open Cycle Gas turbines (OCGT),N,MORTLK11,-38.06316932,142.6674789
Mortlake Power Station Units,283,VIC1,2022-07-01T11:05:00+0000,100.71,100,281,283,13,283,12,Origin Energy Electricity Limited,Generator,Market,Scheduled,Fossil,Natural Gas,Combustion,Open Cycle Gas turbines (OCGT),N,MORTLK12,-38.06316932,142.6674789
Mt Piper Power Station,696.34998,NSW1,2022-07-01T11:05:00+0000,99.48,99.48,700,700,25,700,1,EnergyAustralia Pty Ltd,Generator,Market,Scheduled,Fossil,Black Coal,Combustion,Steam Sub-Critical,N,MP1,-33.358892,150.031322
Mt Piper Power Station,650.40002,NSW1,2022-07-01T11:05:00+0000,92.91,92.91,700,700,25,700,2,EnergyAustralia Pty Ltd,Generator,Market,Scheduled,Fossil,Black Coal,Combustion,Steam Sub-Critical,N,MP2,-33.358892,150.031322
Millmerran Power Plant,435.72931,QLD1,2022-07-01T11:05:00+0000,96.83,102.28,450,426,90,426,1,Millmerran Energy Trader Pty Ltd,Generator,Market,Scheduled,Fossil,Black Coal,Combustion,Steam Super Critical,N,MPP_1,-27.961542,151.278949
Millmerran Power Plant,434.79849,QLD1,2022-07-01T11:05:00+0000,96.62,102.07,450,426,90,426,2,Millmerran Energy Trader Pty Ltd,Generator,Market,Scheduled,Fossil,Black Coal,Combustion,Steam Super Critical,N,MPP_2,-27.961542,151.278949
Mt Stuart Power Station,0,QLD1,2022-07-01T11:05:00+0000,0,0,152,146,31,146,1,Origin Energy Electricity Limited,Generator,Market,Scheduled,Fossil,Kerosene,Combustion,Open Cycle Gas turbines (OCGT),N,MSTUART1,-19.337998,146.851171
Mt Stuart Power Station,0,QLD1,2022-07-01T11:05:00+0000,0,0,152,146,31,146,2,Origin Energy Electricity Limited,Generator,Market,Scheduled,Fossil,Kerosene,Combustion,Open Cycle Gas turbines (OCGT),N,MSTUART2,-19.337998,146.851171
Mt Stuart Power Station,0,QLD1,2022-07-01T11:05:00+0000,0,0,139,131,28,131,3,Origin Energy Electricity Limited,Generator,Market,Scheduled,Fossil,Kerosene,Combustion,Open Cycle Gas turbines (OCGT),N,MSTUART3,-19.337998,146.851171
"Murray 1 Power Station, Murray 2 Power Station",498.90002,VIC1,2022-07-01T11:05:00+0000,31.68,33.26,1575,1500,450,"95, 138","1-10, 1-4",Snowy Hydro Limited,Generator,Market,Scheduled,Hydro,Water,Renewable,Hydro - Gravity,Y,MURRAY,-36.246713,148.190095
Musselroe Wind Farm,0,TAS1,2022-07-01T11:05:00+0000,0,0,168,168,17,3,Jan-56,Hydro-Electric Corporation trading as Hydro Tasmania,Generator,Market,Semi-Scheduled,Wind,Wind,Renewable,Wind - Onshore,N,MUSSELR1,-40.779758,148.0097592
North Brown Hill Wind Farm,18.1,SA1,2022-07-01T11:05:00+0000,13.71,13.68,132,132.3,30,2.1,Jan-63,AGL Hydro Partnership,Generator,Market,Semi-Scheduled,Wind,Wind,Renewable,Wind - Onshore,N,NBHWF1,-33.252576,138.712289
Newport Power Station,513.375,VIC1,2022-07-01T11:05:00+0000,100.66,102.68,510,500,20,500,1,Ecogen Energy Pty Ltd,Generator,Market,Scheduled,Fossil,Natural Gas,Combustion,Steam Sub-Critical,N,NPS,-37.841462,144.894197
Oakey Power Station,0,QLD1,2022-07-01T11:05:00+0000,0,0,171,141,30,141,1,ERM Power Retail Pty Ltd,Generator,Market,Scheduled,Fossil,Natural Gas,Combustion,Open Cycle Gas turbines (OCGT),N,OAKEY1,-27.418362,151.679767
Oakey Power Station,0,QLD1,2022-07-01T11:05:00+0000,0,0,171,141,30,141,2,ERM Power Retail Pty Ltd,Generator,Market,Scheduled,Fossil,Natural Gas,Combustion,Open Cycle Gas turbines (OCGT),N,OAKEY2,-27.418362,151.679767
Oaklands Hill Wind Farm,6.1,VIC1,2022-07-01T11:05:00+0000,9.68,9.1,63,67,30,2.1,32,AGL Hydro Partnership,Generator,Market,Semi-Scheduled,Wind,Wind,Renewable,Wind - Onshore,N,OAKLAND1,-37.663801,142.548056
Osborne Power Station,191.47,SA1,2022-07-01T11:05:00+0000,93.86,106.37,204,180,41,"118, 62","1, 2",Origin Energy Electricity Limited,Generator,Market,Scheduled,Fossil,Natural Gas,Combustion,Combined Cycle Gas Turbine (CCGT),Y,OSB-AG,-34.798021,138.507884
Poatina Power Station,117.90128,TAS1,2022-07-01T11:05:00+0000,95.08,117.9,124,100,20,50,2-Jan,Hydro-Electric Corporation trading as Hydro Tasmania,Generator,Market,Scheduled,Hydro,Water,Renewable,Hydro - Gravity,Y,POAT110,-41.811573,146.919038
Poatina Power Station,238.082,TAS1,2022-07-01T11:05:00+0000,96,119.04,248,200,40,50,6-Mar,Hydro-Electric Corporation trading as Hydro Tasmania,Generator,Market,Scheduled,Hydro,Water,Renewable,Hydro - Gravity,Y,POAT220,-41.811573,146.919038
Port Lincoln Gas Turbine,8.67E-03,SA1,2022-07-01T11:05:00+0000,0.02,0.02,55,50,6,25,2-Jan,Synergen Power Pty Limited,Generator,Market,Scheduled,Fossil,Diesel,Combustion,Open Cycle Gas turbines (OCGT),Y,POR01,-34.70019,135.804728
Port Lincoln Gas Turbine,0,SA1,2022-07-01T11:05:00+0000,0,0,23,23.5,5,23.5,3,Synergen Power Pty Limited,Generator,Market,Scheduled,Fossil,Diesel,Combustion,Open Cycle Gas turbines (OCGT),N,POR03,-34.70019,135.804728
Pelican Point Power Station,245.36026,SA1,2022-07-01T11:05:00+0000,48.11,51.33,510,478,20,"160, 158","1-2, 3",Pelican Point Power Limited,Generator,Market,Scheduled,Fossil,Natural Gas,Combustion,Combined Cycle Gas Turbine (CCGT),Y,PPCCGT,-34.764972,138.505325
Wivenhoe Power Station No. 1 Pump,0,QLD1,2022-07-01T11:05:00+0000,0,0,245,240,49,240,1,CS Energy Limited,Load Norm Off,Market,Scheduled,Hydro,,,,N,PUMP1,-27.372221,152.632028
Wivenhoe Power Station No. 2 Pump,0,QLD1,2022-07-01T11:05:00+0000,0,0,245,240,49,240,2,CS Energy Limited,Load Norm Off,Market,Scheduled,,,,,N,PUMP2,-27.372221,152.632028
Quarantine Power Station,0,SA1,2022-07-01T11:05:00+0000,0,0,25,24,5,24,1,Origin Energy Electricity Limited,Generator,Market,Scheduled,Fossil,Natural Gas,Combustion,Open Cycle Gas turbines (OCGT),N,QPS1,-34.779284,138.522352
Quarantine Power Station,0,SA1,2022-07-01T11:05:00+0000,0,0,25,24,5,24,2,Origin Energy Electricity Limited,Generator,Market,Scheduled,Fossil,Natural Gas,Combustion,Open Cycle Gas turbines (OCGT),N,QPS2,-34.779284,138.522352
Quarantine Power Station,0,SA1,2022-07-01T11:05:00+0000,0,0,25,24,5,24,3,Origin Energy Electricity Limited,Generator,Market,Scheduled,Fossil,Natural Gas,Combustion,Open Cycle Gas turbines (OCGT),N,QPS3,-34.779284,138.522352
Quarantine Power Station,0,SA1,2022-07-01T11:05:00+0000,0,0,25,24,5,24,4,Origin Energy Electricity Limited,Generator,Market,Scheduled,Fossil,Natural Gas,Combustion,Open Cycle Gas turbines (OCGT),N,QPS4,-34.779284,138.522352
Quarantine Power Station,0,SA1,2022-07-01T11:05:00+0000,0,0,128,128,26,128,5,Origin Energy Electricity Limited,Generator,Market,Scheduled,Fossil,Natural Gas,Combustion,Open Cycle Gas turbines (OCGT),N,QPS5,-34.779284,138.522352
Reece Power Station,100.17274,TAS1,2022-07-01T11:05:00+0000,84.18,86.65,119,115.6,40,115.6,1,Hydro-Electric Corporation trading as Hydro Tasmania,Generator,Market,Scheduled,Hydro,Water,Renewable,Hydro - Gravity,N,REECE1,-41.72377,145.135948
Reece Power Station,114.66001,TAS1,2022-07-01T11:05:00+0000,96.35,99.19,119,115.6,40,115.6,2,Hydro-Electric Corporation trading as Hydro Tasmania,Generator,Market,Scheduled,Hydro,Water,Renewable,Hydro - Gravity,N,REECE2,-41.72377,145.135948
Roma Gas Turbine Station,35.75947,QLD1,2022-07-01T11:05:00+0000,85.14,89.4,42,40,9,40,7,Origin Energy Electricity Limited,Generator,Market,Scheduled,Fossil,Natural Gas,Combustion,Open Cycle Gas turbines (OCGT),N,ROMA_7,-26.577201,148.840199
Roma Gas Turbine Station,0,QLD1,2022-07-01T11:05:00+0000,0,0,42,40,9,40,8,Origin Energy Electricity Limited,Generator,Market,Scheduled,Fossil,Natural Gas,Combustion,Open Cycle Gas turbines (OCGT),N,ROMA_8,-26.577201,148.840199
Bendeela / Kangaroo Valley Power Station,0,NSW1,2022-07-01T11:05:00+0000,0,0,240,240,12,"40, 80","B 1-2, KV 3-4",Origin Energy Electricity Limited,Generator,Market,Scheduled,Hydro,Water,Renewable,Hydro - Gravity,Y,SHGEN,-34.73369,150.46687
Bendeela / Kangaroo Valley Pumps,0,NSW1,2022-07-01T11:05:00+0000,0,0,240,240,12,"40, 80","B 1-2, KV 3-4",Origin Energy Electricity Limited,Load Norm Off,Market,Scheduled,,,,,Y,SHPUMP,-34.73369,150.46687
Smithfield Energy Facility,0.19405,NSW1,2022-07-01T11:05:00+0000,0.11,0.12,175,160,35,"38, 62","1-3, 4",Marubeni Australia Power Services Pty Ltd,Generator,Non-Market,Scheduled,Fossil,Natural Gas,Combustion,Combined Cycle Gas Turbine (CCGT),Y,SITHE01,-23.50972,150.319466
Snowtown Wind Farm Stage 2 North,13.9,SA1,2022-07-01T11:05:00+0000,9.65,9.65,144,144,50,3,Jan-48,Snowtown Wind Farm Stage 2 Pty Ltd,Generator,Market,Semi-Scheduled,Wind,Wind,Renewable,Wind - Onshore,N,SNOWNTH1,-33.83008204,138.1184114
Snowtown South Wind Farm,5.3,SA1,2022-07-01T11:05:00+0000,4.21,4.21,126,126,50,3,Jan-42,Snowtown Wind Farm Stage 2 Pty Ltd,Generator,Market,Semi-Scheduled,Wind,Wind,Renewable,Wind - Onshore,N,SNOWSTH1,-33.713867,138.140367
Snowtown Wind Farm Units 1 to 47,8.05062,SA1,2022-07-01T11:05:00+0000,8.13,8.13,99,99,20,2.1,Jan-47,Snowtown Wind Farm Pty Ltd,Generator,Market,Semi-Scheduled,Wind,Wind,Renewable,Wind - Onshore,N,SNOWTWN1,-33.713867,138.140367
Snuggery Power Station,0,SA1,2022-07-01T11:05:00+0000,0,0,69,63,3,21,3-Jan,Synergen Power Pty Limited,Generator,Market,Scheduled,Fossil,Diesel,Combustion,Open Cycle Gas turbines (OCGT),Y,SNUG1,-37.664551,140.415558
Stanwell Power Station,353.29703,QLD1,2022-07-01T11:05:00+0000,91.77,96.79,385,365,77,365,1,Stanwell Corporation Limited,Generator,Market,Scheduled,Fossil,Black Coal,Combustion,Steam Sub-Critical,N,STAN-1,-23.50972,150.319466
Stanwell Power Station,305.21747,QLD1,2022-07-01T11:05:00+0000,79.28,83.62,385,365,77,365,2,Stanwell Corporation Limited,Generator,Market,Scheduled,Fossil,Black Coal,Combustion,Steam Sub-Critical,N,STAN-2,-23.50972,150.319466
Stanwell Power Station,354.30963,QLD1,2022-07-01T11:05:00+0000,92.03,97.07,385,365,77,365,3,Stanwell Corporation Limited,Generator,Market,Scheduled,Fossil,Black Coal,Combustion,Steam Sub-Critical,N,STAN-3,-23.50972,150.319466
Stanwell Power Station,0,QLD1,2022-07-01T11:05:00+0000,0,0,385,365,77,365,4,Stanwell Corporation Limited,Generator,Market,Scheduled,Fossil,Black Coal,Combustion,Steam Sub-Critical,N,STAN-4,-23.50972,150.319466
Swanbank E Gas Turbine,0.41688,QLD1,2022-07-01T11:05:00+0000,0.11,0.11,385,385,77,385,1,Stanwell Corporation Limited,Generator,Market,Scheduled,Fossil,Natural Gas,Combustion,Combined Cycle Gas Turbine (CCGT),N,SWAN_E,-27.655374,152.817938
Tallawarra Power Station,413,NSW1,2022-07-01T11:05:00+0000,89.78,89.78,460,460,92,460,1,EnergyAustralia Pty Ltd,Generator,Market,Scheduled,Fossil,Natural Gas,Combustion,Combined Cycle Gas Turbine (CCGT),N,TALWA1,-34.522778,150.808056
Tarong Power Station,333.80002,QLD1,2022-07-01T11:05:00+0000,86.7,95.37,385,350,77,350,1,Stanwell Corporation Limited,Generator,Market,Scheduled,Fossil,Black Coal,Combustion,Steam Sub-Critical,N,TARONG#1,-26.782358,151.915273
Tarong Power Station,335.30002,QLD1,2022-07-01T11:05:00+0000,87.09,95.8,385,350,77,350,2,Stanwell Corporation Limited,Generator,Market,Scheduled,Fossil,Black Coal,Combustion,Steam Sub-Critical,N,TARONG#2,-26.782358,151.915273
Tarong Power Station,280,QLD1,2022-07-01T11:05:00+0000,72.73,80,385,350,77,350,3,Stanwell Corporation Limited,Generator,Market,Scheduled,Fossil,Black Coal,Combustion,Steam Sub-Critical,N,TARONG#3,-26.782358,151.915273
Tarong Power Station,335.30002,QLD1,2022-07-01T11:05:00+0000,87.09,95.8,385,350,77,350,4,Stanwell Corporation Limited,Generator,Market,Scheduled,Fossil,Black Coal,Combustion,Steam Sub-Critical,N,TARONG#4,-26.782358,151.915273
Tarraleah Power Station,75,TAS1,2022-07-01T11:05:00+0000,79.79,83.33,94,90,60,15,6-Jan,Hydro-Electric Corporation trading as Hydro Tasmania,Generator,Market,Scheduled,Hydro,Water,Renewable,Hydro - Gravity,Y,TARRALEA,-42.301208,146.457156
Tarong North Power Station,443.3125,QLD1,2022-07-01T11:05:00+0000,92.36,100.07,480,443,96,450,1,Stanwell Corporation Limited,Generator,Market,Scheduled,Fossil,Black Coal,Combustion,Steam Super Critical,N,TNPS1,-26.775763,151.914602
"Torrens Island Power Station ""A""",0,SA1,2022-07-01T11:05:00+0000,0,0,120,120,15,120,3,AGL SA Generation Pty Limited,Generator,Market,Scheduled,Fossil,Natural Gas / Fuel Oil,Combustion,Steam Sub-Critical,N,TORRA3,-34.806844,138.521322
"Torrens Island Power Station ""B""",0,SA1,2022-07-01T11:05:00+0000,0,0,210,200,20,200,1,AGL SA Generation Pty Limited,Generator,Market,Scheduled,Fossil,Natural Gas / Fuel Oil,Combustion,Steam Sub-Critical,N,TORRB1,-34.805171,138.52262
"Torrens Island Power Station ""B""",185,SA1,2022-07-01T11:05:00+0000,88.1,92.5,210,200,20,200,2,AGL SA Generation Pty Limited,Generator,Market,Scheduled,Fossil,Natural Gas / Fuel Oil,Combustion,Steam Sub-Critical,N,TORRB2,-34.805171,138.52262
"Torrens Island Power Station ""B""",195,SA1,2022-07-01T11:05:00+0000,92.86,97.5,210,200,20,200,3,AGL SA Generation Pty Limited,Generator,Market,Scheduled,Fossil,Natural Gas / Fuel Oil,Combustion,Steam Sub-Critical,N,TORRB3,-34.805171,138.52262
"Torrens Island Power Station ""B""",124,SA1,2022-07-01T11:05:00+0000,59.05,62,210,200,20,200,4,AGL SA Generation Pty Limited,Generator,Market,Scheduled,Fossil,Natural Gas / Fuel Oil,Combustion,Steam Sub-Critical,N,TORRB4,-34.805171,138.52262
Trevallyn Power Station,79.10282,TAS1,2022-07-01T11:05:00+0000,76.8,98.88,103,80,60,20,4-Jan,Hydro-Electric Corporation trading as Hydro Tasmania,Generator,Market,Scheduled,Hydro,Water,Renewable,Hydro - Gravity,Y,TREVALLN,-41.423142,147.11283
Tribute Power Station,48.29,TAS1,2022-07-01T11:05:00+0000,52.49,58.32,92,82.8,40,82.8,1,Hydro-Electric Corporation trading as Hydro Tasmania,Generator,Market,Scheduled,Hydro,Water,Renewable,Hydro - Gravity,N,TRIBUTE,-41.811805,145.653567
Tumut 3 Power Station,255.64001,NSW1,2022-07-01T11:05:00+0000,14.2,17.04,1800,1500,600,250,6-Jan,Snowy Hydro Limited,Generator,Market,Scheduled,Hydro,Water,Renewable,Hydro - Gravity,Y,TUMUT3,-35.611218,148.291685
Tungatinah Power Station,103.58003,TAS1,2022-07-01T11:05:00+0000,72.84,82.86,142.2,125,75,25,5-Jan,Hydro-Electric Corporation trading as Hydro Tasmania,Generator,Market,Scheduled,Hydro,Water,Renewable,Hydro - Gravity,Y,TUNGATIN,-42.296671,146.456543
Tamar Valley Combined Cycle Power Station,0,TAS1,2022-07-01T11:05:00+0000,0,0,208,208,9,"141, 68","1, 2",Aurora Energy (Tamar Valley) Pty Ltd trading as AETV Power,Generator,Market,Scheduled,Fossil,Natural Gas,Combustion,"Combined Cycle Gas turbines (OCGT), Combined Cycle Gas Turbines (CCGT)",Y,TVCC201,-41.140125,146.903636
Tamar Valley Peaking  Power Station,57.88517,TAS1,2022-07-01T11:05:00+0000,99.8,99.8,58,58,10,58,1,Aurora Energy (Tamar Valley) Pty Ltd trading as AETV Power,Generator,Market,Scheduled,Fossil,Natural Gas,Combustion,Open Cycle Gas turbines (OCGT),N,TVPP104,-41.140125,146.903636
"Tumut 1 Power Station, Tumut 2 Power Station",117.26913,NSW1,2022-07-01T11:05:00+0000,17.63,19.04,665,616,320,"82, 72","1-4, 5-8",Snowy Hydro Limited,Generator,Market,Scheduled,Hydro,Water,Renewable,Hydro - Gravity,Y,UPPTUMUT,-35.951729,148.36371
Uranquinty Power Station,0,NSW1,2022-07-01T11:05:00+0000,0,0,166,166,34,166,1,Origin Energy Uranquinty Power Pty Ltd,Generator,Market,Scheduled,Fossil,Natural Gas,Combustion,Open Cycle Gas turbines (OCGT),N,URANQ11,-35.179395,147.215692
Uranquinty Power Station,0,NSW1,2022-07-01T11:05:00+0000,0,0,166,166,34,166,2,Origin Energy Uranquinty Power Pty Ltd,Generator,Market,Scheduled,Fossil,Natural Gas,Combustion,Open Cycle Gas turbines (OCGT),N,URANQ12,-35.179395,147.215692
Uranquinty Power Station,0,NSW1,2022-07-01T11:05:00+0000,0,0,166,166,34,166,3,Origin Energy Uranquinty Power Pty Ltd,Generator,Market,Scheduled,Fossil,Natural Gas,Combustion,Open Cycle Gas turbines (OCGT),N,URANQ13,-35.179395,147.215692
Uranquinty Power Station,0,NSW1,2022-07-01T11:05:00+0000,0,0,166,166,34,166,4,Origin Energy Uranquinty Power Pty Ltd,Generator,Market,Scheduled,Fossil,Natural Gas,Combustion,Open Cycle Gas turbines (OCGT),N,URANQ14,-35.179395,147.215692
"Vales Point ""B"" Power Station",599.625,NSW1,2022-07-01T11:05:00+0000,88.18,90.85,680,660,25,660,5,Delta Electricity,Generator,Market,Scheduled,Fossil,Black Coal,Combustion,Steam Sub-Critical,N,VP5,-33.160745,151.543146
"Vales Point ""B"" Power Station",599.59998,NSW1,2022-07-01T11:05:00+0000,88.18,90.85,680,660,25,660,6,Delta Electricity,Generator,Market,Scheduled,Fossil,Black Coal,Combustion,Steam Sub-Critical,N,VP6,-33.160745,151.543146
Wivenhoe Power Station,0,QLD1,2022-07-01T11:05:00+0000,0,0,312,250,120,250,1,CS Energy Limited,Generator,Market,Scheduled,Hydro,Water,Renewable,Hydro - pump storage,N,W/HOE#1,-27.395212,152.609153
Wivenhoe Power Station,0,QLD1,2022-07-01T11:05:00+0000,0,0,312,250,120,250,2,CS Energy Limited,Generator,Market,Scheduled,Hydro,Water,Renewable,Hydro - pump storage,N,W/HOE#2,-27.395212,152.609153
Waterloo Wind Farm,3.3,SA1,2022-07-01T11:05:00+0000,2.52,2.52,130.8,130.8,27,"3, 3.3","1-37, 38-43",Waterloo Wind Farm Pty Ltd,Generator,Market,Semi-Scheduled,Wind,Wind,Renewable,Wind - Onshore,N,WATERLWF,-34.00035762,138.9153189
West Kiewa Power Station,30,VIC1,2022-07-01T11:05:00+0000,88.24,96.77,34,31,15,15,1,AGL Hydro Partnership,Generator,Market,Scheduled,Hydro,Water,Renewable,Hydro - Gravity,N,WKIEWA1,-41.811573,146.919038
West Kiewa Power Station,0.1,VIC1,2022-07-01T11:05:00+0000,0.29,0.32,34,31,15,15,2,AGL Hydro Partnership,Generator,Market,Scheduled,Hydro,Water,Renewable,Hydro - Gravity,N,WKIEWA2,-36.760066,147.186048
Woodlawn Wind Farm,28.60199,NSW1,2022-07-01T11:05:00+0000,59.59,59.59,48,48,13,2.1,23-Jan,Woodlawn Wind Pty Ltd,Generator,Market,Semi-Scheduled,Wind,Wind,Renewable,Wind - Onshore,N,WOODLWN1,-35.0860597,149.5716058
Townsville Gas Turbine,0,QLD1,2022-07-01T11:05:00+0000,0,0,174,160,17,160,1,AGL Hydro Partnership,Generator,Market,Scheduled,Fossil,Natural Gas,Combustion,Open Cycle Gas turbines (OCGT),N,YABULU,-19.201056,146.618707
Townsville Gas Turbine,0,QLD1,2022-07-01T11:05:00+0000,0,0,84,82,10,82,2,AGL Hydro Partnership,Generator,Market,Scheduled,Fossil,Natural Gas,Combustion,Open Cycle Gas turbines (OCGT),N,YABULU2,-19.201056,146.618707
Yarwun Power Station,114.86,QLD1,2022-07-01T11:05:00+0000,63.81,74.58,180,154,36,154,1,RTA Yarwun Pty Ltd,Generator,Market,Non-Scheduled,Fossil,Natural Gas,Combustion,Combined Cycle Gas Turbine (CCGT),N,YARWUN_1,-23.830645,151.15193
Yallourn W Power Station,0,VIC1,2022-07-01T11:05:00+0000,0,0,395,360,79,360,1,EnergyAustralia Yallourn Pty Ltd,Generator,Market,Scheduled,Fossil,Brown Coal,Combustion,Steam Sub-Critical,N,YWPS1,-38.177015,146.342783
Yallourn W Power Station,360.14935,VIC1,2022-07-01T11:05:00+0000,94.78,100.04,380,360,76,360,2,EnergyAustralia Yallourn Pty Ltd,Generator,Market,Scheduled,Fossil,Brown Coal,Combustion,Steam Sub-Critical,N,YWPS2,-38.177015,146.342783
Yallourn W Power Station,341.32278,VIC1,2022-07-01T11:05:00+0000,84.28,89.82,405,380,81,380,3,EnergyAustralia Yallourn Pty Ltd,Generator,Market,Scheduled,Fossil,Brown Coal,Combustion,Steam Sub-Critical,N,YWPS3,-38.177015,146.342783
Yallourn W Power Station,0,VIC1,2022-07-01T11:05:00+0000,0,0,405,380,81,380,4,EnergyAustralia Yallourn Pty Ltd,Generator,Market,Scheduled,Fossil,Brown Coal,Combustion,Steam Sub-Critical,N,YWPS4,-38.177015,146.342783
German Creek Power Station,25.9,QLD1,2022-07-01T11:05:00+0000,57.56,80.94,45,32,,2,16-Jan,EDL CSM (QLD) Pty Ltd,Generator,Market,Non-Scheduled,Fossil,Waste Coal Mine Gas,Combustion,Compression Reciprocating Engine,N,GERMCRK,-22.928147,148.551497
Boco Rock Wind Farm,34.73,NSW1,2022-07-01T11:05:00+0000,30.69,30.69,113.18,113.18,201,"1.7, 1.62",".1-58, 59-67",Boco Rock Wind Farm Pty Ltd,Generator,Market,Semi-Scheduled,Wind,Wind,Renewable,Wind - Onshore,N,BOCORWF1,-36.59141422,149.1296751
"Moranbah North Power Station, Grosvenor 1 Waste Coal Mine Gas Power Station",40.087509,QLD1,2022-07-01T11:05:00+0000,51.39,47.72,78,84,,"3.02, 3.041","1-21, 1-7",EDL Projects (Australia) Pty Ltd,Generator,Market,Non-Scheduled,"Renewable, Gas",Waste Coal Mine Gas,Combustion,Spark Ignition,Y,MBAHNTH,-21.89665526,147.9506554
Taralga Wind Farm,40.2,NSW1,2022-07-01T11:05:00+0000,37.64,37.64,106.8,106.8,,106.8,.1-51,Taralga Wind Farm Nominees No 2 Pty Ltd (ATF Taralga Wind Farm Operating Trust),Generator,Market,Semi-Scheduled,Wind,Wind,Renewable,Wind - Onshore,N,TARALGA1,-34.427076,149.85764
Nyngan Solar Plant,0,NSW1,2022-07-01T11:05:00+0000,0,0,102,102,20,0.66,1-154,AGL Hydro Partnership,Generator,Market,Semi-Scheduled,Solar,Solar PV,Renewable,Photovoltaic Flat Panel,N,NYNGAN1,-31.55274036,147.085352
Bald Hills Wind Farm,10.886,VIC1,2022-07-01T11:05:00+0000,9.07,10.21,120,106.6,,106.6,.1-52,Alinta Energy Retail Sales Pty Ltd,Generator,Market,Semi-Scheduled,Wind,Wind,Renewable,Wind - Onshore,N,BALDHWF1,-38.7908,145.9277
Royalla Solar Farm,0,NSW1,2022-07-01T11:05:00+0000,0,0,20,20,,1,20-Jan,Royalla Solar Farm Pty Ltd,Generator,Market,Non-Scheduled,Solar,Solar PV,Renewable,Photovoltaic Flat Panel,N,ROYALLA1,-35.4901,149.143
Laverton North Power Station,166.44978,VIC1,2022-07-01T11:05:00+0000,96.77,106.7,172,156,27,156,1,Snowy Hydro Limited,Generator,Market,Scheduled,Fossil,Natural Gas,Combustion,Open Cycle Gas turbines (OCGT),N,LNGS1,-37.84158,144.788711
Laverton North Power Station,166.18121,VIC1,2022-07-01T11:05:00+0000,96.62,106.53,172,156,27,156,2,Snowy Hydro Limited,Generator,Market,Scheduled,Fossil,Natural Gas,Combustion,Open Cycle Gas turbines (OCGT),N,LNGS2,-37.84158,144.788711
Valley Power Peaking Facility,0,VIC1,2022-07-01T11:05:00+0000,0,0,60,50,11,50,1,Snowy Hydro Limited,Generator,Market,Scheduled,Fossil,Natural Gas,Combustion,Open Cycle Gas turbines (OCGT),N,VPGS1,-38.253622,146.589166
Valley Power Peaking Facility,0,VIC1,2022-07-01T11:05:00+0000,0,0,60,50,11,50,2,Snowy Hydro Limited,Generator,Market,Scheduled,Fossil,Natural Gas,Combustion,Open Cycle Gas turbines (OCGT),N,VPGS2,-38.253622,146.589166
Valley Power Peaking Facility,0,VIC1,2022-07-01T11:05:00+0000,0,0,60,50,11,50,3,Snowy Hydro Limited,Generator,Market,Scheduled,Fossil,Natural Gas,Combustion,Open Cycle Gas turbines (OCGT),N,VPGS3,-38.253622,146.589166
Valley Power Peaking Facility,0,VIC1,2022-07-01T11:05:00+0000,0,0,60,50,11,50,4,Snowy Hydro Limited,Generator,Market,Scheduled,Fossil,Natural Gas,Combustion,Open Cycle Gas turbines (OCGT),N,VPGS4,-38.253622,146.589166
Valley Power Peaking Facility,0,VIC1,2022-07-01T11:05:00+0000,0,0,60,50,11,50,5,Snowy Hydro Limited,Generator,Market,Scheduled,Fossil,Natural Gas,Combustion,Open Cycle Gas turbines (OCGT),N,VPGS5,-38.253622,146.589166
Valley Power Peaking Facility,0,VIC1,2022-07-01T11:05:00+0000,0,0,60,50,11,50,6,Snowy Hydro Limited,Generator,Market,Scheduled,Fossil,Natural Gas,Combustion,Open Cycle Gas turbines (OCGT),N,VPGS6,-38.253622,146.589166
Broken Hill Solar Plant,0,NSW1,2022-07-01T11:05:00+0000,0,0,53.76,53.76,,0.672,.1-80,AGL Hydro Partnership,Generator,Market,Semi-Scheduled,Solar,Solar,Renewable,Photovoltaic Flat Panel,Y,BROKENH1,-31.98670743,141.3915455
Lonsdale Power Station,14.92,SA1,2022-07-01T11:05:00+0000,71.05,74.6,21,20,,1.125,18-Jan,Snowy Hydro Limited,Generator,Market,Scheduled,Fossil,Diesel,Combustion,Compression Reciprocating Engine,Y,LONSDALE,-35.10966855,138.4910068
Port Stanvac Power Station 1,0,SA1,2022-07-01T11:05:00+0000,0,0,65,58,,1.6,Jan-36,Snowy Hydro Limited,Generator,Market,Scheduled,Fossil,Diesel,Combustion,Compression Reciprocating Engine,N,PTSTAN1,-35.11039534,138.4914591
Moree Solar Farm,0,QLD1,2022-07-01T11:05:00+0000,0,0,56,57,,20,Jan-56,Moree Solar Farm Pty Ltd,Generator,Market,Semi-Scheduled,Solar,Solar PV,Renewable,Photovoltaic Flat Panel,N,MOREESF1,-29.569,149.867
Angaston Power Station,41.2,SA1,2022-07-01T11:05:00+0000,82.4,82.4,50,50,14,1.667,30,Snowy Hydro Limited,Generator,Market,Scheduled,Fossil,Diesel,Combustion,Compression Reciprocating Engine,Y,ANGAST1,-34.50348,139.024537
Hornsdale Wind Farm,21.5,SA1,2022-07-01T11:05:00+0000,21,21,102.4,102.4,50,3.2,Jan-32,HWF1 Pty Ltd,Generator,Market,Semi-Scheduled,Wind,Wind,Renewable,Wind - Onshore,Y,HDWF1,-33.042878,138.556285
Barcaldine Solar Farm,0,QLD1,2022-07-01T11:05:00+0000,0,0,20,20,,20,2-Jan,Barcaldine Remote Community Solar Farm Pty Ltd,Generator,Market,Non-Scheduled,Solar,Solar,Renewable,Photovoltaic Tracking Flat Panel,Y,BARCSF1,-23.547418,145.319009
Hornsdale Wind Farm 2,23.1,SA1,2022-07-01T11:05:00+0000,22.56,22.56,102.4,102.4,50,3.2,Jan-32,HWF2 Pty Ltd,Generator,Market,Semi-Scheduled,Wind,Wind,Renewable,Wind - Onshore,Y,HDWF2,-33.042878,138.556285
Hunter Valley Gas Turbine,,NSW1,2022-03-14T14:00:00+0000,,,50,50,10,25,2-Jan,AGL Macquarie Pty Limited,Generator,Market,Scheduled,Fossil,Kerosene,Combustion,Open Cycle Gas turbines (OCGT),Y,HVGTS,-32.389253,150.966396
South East Water - Hallam Hydro Plant,,VIC1,,,,1,0.25,,0.25,1,Progressive Green Pty Ltd,Generator,Market,Non-Scheduled,Hydro,Water,Renewable,Hydro - Gravity,N,HLMSEW01,-38.02317811,145.2781215
Kareeya Power Station,,QLD1,,,,7,7,,7,5,Stanwell Corporation Limited,Generator,Market,Non-Scheduled,Hydro,Water,Renewable,Run of River,N,KAREEYA5,-17.767002,145.577865
Hallam Road Renewable Energy Facility,,VIC1,,,,9,8.984,,1.123,8-Jan,Lumo Energy Australia Pty Ltd,Generator,Market,Non-Scheduled,Renewable/ Biomass / Waste,Landfill Methane / Landfill Gas,Combustion,Spark Ignition Reciprocating Engine,N,HALLAMRD1,-38.053343,145.269856
Tatura Biomass Generator,,VIC1,,,,1,1.1,,1.1,1,Diamond Energy Pty Ltd,Generator,Market,Non-Scheduled,Renewable/ Biomass / Waste,Sewerage/Waste Water,Combustion,Compression Reciprocating Engine,N,TATURA01,-36.479261,145.235026
Glenbawn Hydro Power Station,,NSW1,,,,5,5.8,,5.8,1,AGL Hydro Partnership,Generator,Market,Non-Scheduled,Hydro,Water,Renewable,Hydro - Gravity,N,GLBWNHYD,-32.109661,150.998154
Remount Power Station,,TAS1,,,,2,2,,1,2-Jan,LUMO Generation SA Pty Ltd,Generator,Market,Non-Scheduled,Renewable/ Biomass / Waste,Landfill Methane / Landfill Gas,,,N,REMOUNT,-41.395049,147.155425
The Drop Hydro Unit 1,,NSW1,,,,3,3,0,2.5,1,Pacific Hydro Investments Pty Ltd,Generator,Market,Non-Scheduled,Hydro,Water,Renewable,Run of River,N,THEDROP1,-35.604347,145.783725
Mackay Gas Turbine,,QLD1,2021-03-31T14:00:00+0000,,,34,30,16,30,1,Stanwell Corporation Limited,Generator,Market,Scheduled,Fossil,Diesel,Combustion,Open Cycle Gas turbines (OCGT),N,MACKAYGT,-21.144566,149.159097
Ararat Wind Farm,,VIC1,,,,241.59,241.59,50,12.26,Jan-75,Ararat Wind Farm Pty Ltd,Generator,Market,Semi-Scheduled,Wind,Wind,Renewable,Wind - Onshore,Y,ARFW1,-37.238181,143.052044
West Nowra Landfill Gas Power Generation Facility,,NSW1,,,,1,1,,1,1,AGL Hydro Partnership,Generator,Market,Non-Scheduled,Renewable/ Biomass / Waste,Landfill Methane / Landfill Gas,Combustion,Compression Reciprocating Engine,N,AGLNOW1,-34.881978,150.551485
Roghan Road LFG Power Plant,,QLD1,,,,2,2,,2,1,AGL Hydro Partnership,Generator,Market,Non-Scheduled,Renewable/ Biomass / Waste,Bagasse,Combustion,Steam Sub-Critical,N,EDLRGNRD,-27.338768,153.03435
Broadwater Power Station Units 1 and 2,,NSW1,,,,38,38,,30,1,Cape Byron Management Pty Ltd,Generator,Market,Non-Scheduled,Biomass,Bagasse,Combustion,Steam - sub critical,N,BWTR1,-29.011828,153.433481
Keepit Power Station,,NSW1,,,,8,6,,6,1,GSP Energy Pty Ltd,Generator,Market,Non-Scheduled,Hydro,Water,Renewable,Hydro - Gravity,N,KEEPIT,-30.879189,150.491399
Lucas Heights 2 LFG Power Station,,NSW1,,,,5,5,,4.6,15-Dec,EDL LFG (NSW) Pty Ltd,Generator,Market,Non-Scheduled,Renewable/ Biomass / Waste,Landfill Methane / Landfill Gas,Combustion,Compression Reciprocating Engine,N,LUCASHGT,-34.048146,150.973882
Callide A Power Station,,QLD1,2021-03-11T03:25:00+0000,,,30,30,6,30,4,CS Energy Limited,Generator,Market,Non-Scheduled,Fossil,Black Coal,Combustion,Steam Sub-Critical,N,CALL_A_4,-24.334025,150.627973
Invicta Sugar Mill,,QLD1,2018-06-13T14:00:00+0000,,,153,150,,"38.8, 9, 2.5","1, 2, 3",Wilmar Sugar Pty Ltd,Generator,Non-Market,Non-Scheduled,Renewable/ Biomass / Waste,Bagasse,Combustion,Steam Sub-Critical,N,INVICTA,-19.516697,147.106526
Blue Lake Milling Power Plant,,SA1,,,,1,1,,1,1,EnerNOC Pty Ltd,Generator,Market,Non-Scheduled,Fossil,Diesel,Combustion,Compression Reciprocating Engine,N,BLULAKE1,-36.31643279,140.7574619
Claytons Landfill Gas Power Station,,VIC1,,,,11,11,,1,11-Jan,EDL LFG (Vic) Pty Ltd,Generator,Market,Non-Scheduled,Renewable,Landfill Gas,Combustion,Spark Ignition,N,CLAYTON,-37.9502,145.118722
Brown Mountain,,NSW1,,,,6,4.95,,"0.5, 0.75, 1, 4.2","1, 2-3, 4-5, 6",Hydro Power Pty Limited,Generator,Market,Non-Scheduled,Hydro,Water,Renewable,Hydro - Gravity,Y,BROWNMT,-36.595145,149.474107
Wollert Renewable Energy Facility,,VIC1,,,,7,6.738,,1.123,6-Jan,Lumo Energy Australia Pty Ltd,Generator,Market,Non-Scheduled,Renewable/ Biomass / Waste,Landfill Methane / Landfill Gas,Combustion,Spark Ignition Reciprocating Engine,N,WOLLERT1,-37.582957,145.048704
Teralba Power Station,,NSW1,,,,3,3,,1,3-Jan,EnviroGen Pty Limited,Generator,Market,Non-Scheduled,Fossil,Coal Seam Methane,Combustion,Compression Reciprocating Engine,N,TERALBA,-32.94549,151.611907
SA Water Bolivar Waste Water Treatment (WWT) Plant,,SA1,,,,9.9,9.9,,9.9,4,Alinta Energy Retail Sales Pty Ltd,Generator,Market,Non-Scheduled,Renewable/ Biomass / Waste,Waste Water / Sewerage,Combustion,Compression Reciprocating Engine,N,BOLIVAR1,-34.76995,138.58315
Woy Woy Landfill Site,,NSW1,,,,1,1.064,,1.064,1,AGL Hydro Partnership,Generator,Market,Non-Scheduled,Landfill / Biogas,Landfill / Biogas,Combustion,Compression Reciprocating Engine,N,WOYWOY1,-33.504945,151.291944
Woodlawn Bioreactor Energy Generation Station,,NSW1,,,,7,7,,1.065,6-Jan,EnergyAustralia Pty Ltd,Generator,Market,Non-Scheduled,Renewable/ Biomass / Waste,Landfill Methane / Landfill Gas,Combustion,Compression Reciprocating Engine,N,WDLNGN01,-35.05900246,149.576905
ISIS Central Sugar Mill Co-generation Plant,,QLD1,,,,25,25,,25,1,AGL Hydro Partnership,Generator,Market,Non-Scheduled,Renewable/ Biomass / Waste,Bagasse,Combustion,Steam Sub-Critical,N,ICSM,-25.193986,152.208556
West Illawarra Leagues Club Plant,,NSW1,,,,1,1,,"0.715, 0.275","1, 2",EnerNOC Pty Ltd,Generator,Market,Non-Scheduled,Fuel Oil,Diesel,Combustion,Compression Reciprocating Engine,N,WESTILL1,-34.451537,150.842907
Glenmaggie Hydro Power Station,,VIC1,,,,4,4,0,3.8,1,Pacific Hydro Investments Pty Ltd,Generator,Market,Non-Scheduled,Hydro,Water,Renewable,Run of River,N,GLENMAG1,-37.904745,146.801085
Windy Hill Wind Farm,,QLD1,,,,12,12,,0.6,20-Jan,Windy Hill Wind Farm Pty Ltd,Generator,Market,Non-Scheduled,Wind,Wind,Renewable,Wind - Onshore,Y,WHILL1,-17.5922,145.5306
Pindari Hydro Power Station,,NSW1,,,,6,6.7,,6.7,1,AGL Hydro Partnership,Generator,Market,Non-Scheduled,Hydro,Water,Renewable,Hydro - Gravity,N,PINDARI,-29.388626,151.244202
Condong Power Station Unit 1,,NSW1,,,,30,30,,30,1,Cape Byron Management Pty Ltd,Generator,Market,Non-Scheduled,Biomass,Bagasse,Combustion,Steam - sub critical,N,CONDONG1,-28.313802,153.43411
Burrinjuck Power Station,,NSW1,,,,28,27,,"5.7, 15.4","3-4, 5",GSP Energy Pty Ltd,Generator,Market,Non-Scheduled,Hydro,Water,Renewable,Hydro - Gravity,N,BURRIN,-35.00252,148.583393
"Torrens Island Power Station ""A""",,SA1,2020-09-29T14:00:00+0000,,,120,120,15,120,4,AGL SA Generation Pty Limited,Generator,Market,Scheduled,Fossil,Natural Gas / Fuel Oil,Combustion,Steam Sub-Critical,N,TORRA4,-34.806844,138.521322
Wilga Park B Power Station,,NSW1,,,,6,6,,3,2,SANTOS NSW (NARRABRI POWER) PTY LTD,Generator,Market,Non-Scheduled,Fossil,Coal Seam Methane,Combustion,Spark Ignition Reciprocating Engine,N,WILGB01,-30.363437,149.677153
Shepparton Wastewater Treatment Facility,,VIC1,,,,1,1.1,,1.1,1,Diamond Energy Pty Ltd,Generator,Market,Non-Scheduled,Renewable/ Biomass / Waste,Sewerage/Waste Water,Combustion,Compression Reciprocating Engine,N,SHEP1,-36.321775,145.378983
Jounama Small Hydro Power Station,,NSW1,,,,14,14,,14,1,Snowy Hydro Limited,Generator,Market,Non-Scheduled,Hydro,Water,Renewable,Hydro - Gravity,N,JOUNAMA1,-35.561965,148.305517
Jindabyne Small Hydro Power Station,,NSW1,,,,1,1.1,,1.1,1,Snowy Hydro Limited,Generator,Market,Non-Scheduled,Hydro,Water,Renewable,Hydro - Gravity,N,JNDABNE1,-36.43515,148.63325
Basslink HVDC Link,,TAS1,,,,478,478,200,478,1,Basslink Pty Ltd,Network Service Provider,Market,Scheduled,,,,,N,BLNKTAS,-41.042222,146.868611
Jacks Gully Landfill Gas Power Station,,NSW1,,,,2.3,2.3,,1.15,2,EDL LFG (NSW) Pty Ltd,Generator,Market,Non-Scheduled,Renewable/ Biomass / Waste,Landfill Methane / Landfill Gas,Combustion,Spark Ignition Reciprocating Engine,N,JACKSGUL,-34.07344,150.742689
Wingfield 2 Landfill Gas Power Station Units 1-4,,SA1,,,,5,5,0,1.03,4-Jan,EDL LFG (SA) Pty Ltd,Generator,Market,Non-Scheduled,Renewable/ Biomass / Waste,Landfill Methane / Landfill Gas,Combustion,Spark Ignition Reciprocating Engine,N,WING2_1,-34.832081,138.548903
AGL SITA Landfill1 Kemps Creek,,NSW1,,,,2.8,2.8,,1.4,2-Jan,AGL Hydro Partnership,Generator,Market,Non-Scheduled,"Landfill, Biogas","Landfill, Biogas",Combustion,Compression Reciprocating Engine,Y,AGLSITA1,-33.862398,150.756411
Copeton Hydro Power Station,,NSW1,,,,24,24,,24,1,AGL Hydro Partnership,Generator,Market,Non-Scheduled,Hydro,Water,Renewable,Hydro - Gravity,N,COPTNHYD,-29.910198,150.923462
"Torrens Island Power Station ""A""",,SA1,2020-09-29T14:00:00+0000,,,120,120,20,120,2,AGL SA Generation Pty Limited,Generator,Market,Scheduled,Fossil,Natural Gas / Fuel Oil,Combustion,Steam Sub-Critical,N,TORRA2,-34.806844,138.521322
Awaba Power Station,,NSW1,,,,1,1.123,,1.123,1,LUMO Generation SA Pty Ltd,Generator,Market,Non-Scheduled,Renewable/ Biomass / Waste,Landfill Methane / Landfill Gas,,,N,AWABAREF,-33.02503,151.549719
Wyangala A Power Station,,NSW1,,,,20,20,,20,1,Hydro Power Pty Limited,Generator,Market,Non-Scheduled,Hydro,Water,Renewable,Hydro - Gravity,N,WYANGALA,-33.980989,148.947306
Bankstown Sports Club Plant Units,,NSW1,,,,2,2,,"0.8, 1.34","1, 2",EnerNOC Pty Ltd,Generator,Market,Non-Scheduled,Fuel Oil,Diesel,Combustion,Compression Reciprocating Engine,N,BANKSPT1,-33.9196996,151.0332436
St George Leagues Club Plant,,NSW1,,,,1,1,,1.48,1,EnerNOC Pty Ltd,Generator,Market,Non-Scheduled,Fuel Oil,Diesel,Combustion,Compression Reciprocating Engine,N,STGEORG1,-33.97481738,151.129381
Mornington Waste Disposal Facility,,VIC1,,,,1,1,,0.77,1,EnergyAustralia Pty Ltd,Generator,Market,Non-Scheduled,Renewable/ Biomass / Waste,Landfill Methane / Landfill Gas,Combustion,Compression Reciprocating Engine,N,MORNW,-38.391631,144.855322
Rochedale Renewable Energy Facility,,QLD1,,,,4,4,,"1.1, 0.7","1-3, 4",Origin Energy Electricity Limited,Generator,Market,Non-Scheduled,Renewable/ Biomass / Waste,Landfill Methane / Landfill Gas,Combustion,Compression Reciprocating Engine,N,ROCHEDAL,-27.559117,153.123634
Codrington Wind Farm,,VIC1,,,,18,18.2,,1.3,14-Jan,Energy Pacific (Vic) Pty Ltd,Generator,Market,Non-Scheduled,Wind,Wind,Renewable,Wind - Onshore,N,CODRNGTON,-38.28351623,141.9547287
Taralgon Network Support Station,,VIC1,,,,10,10,,2,5-Jan,NovaPower Pty Ltd,Generator,Market,Non-Scheduled,Fossil,Natural Gas,Combustion,Spark Ignition Reciprocating Engine,N,TGNSS1,-38.17909,146.5629
Ballarat Base Hospital Plant,,VIC1,,,,3,3,,1.02,3-Jan,EnerNOC Pty Ltd,Generator,Market,Non-Scheduled,Fossil,Natural Gas,Combustion,Compression Reciprocating Engine,N,BBASEHOS,-37.559607,143.846918
Veolia Ti Tree Bio Reactor,,QLD1,,,,2,2,,1,2-Jan,Veolia Environmental Services (Australia) Pty Ltd,Generator,Market,Non-Scheduled,Renewable/ Biomass / Waste,Landfill Methane / Landfill Gas,Combustion,Compression Reciprocating Engine,Y,TITREE,-27.680164,152.659295
Basslink HVDC Link,,VIC1,,,,594,594,200,594,1,Basslink Pty Ltd,Network Service Provider,Market,Scheduled,,,,,N,BLNKVIC,-38.406111,147.068333
Burrendong Hydro Power Station,,NSW1,,,,19,19,,19,1,AGL Hydro Partnership,Generator,Market,Non-Scheduled,Hydro,Water,Renewable,Hydro - Gravity,N,BDONGHYD,-32.664616,149.107986
Pedler Creek Landfill Gas Power Station Units 1-3,,SA1,,,,3,3,0,1.03,3-Jan,EDL LFG (SA) Pty Ltd,Generator,Market,Non-Scheduled,Renewable/ Biomass / Waste,Landfill Methane / Landfill Gas,Combustion,Spark Ignition Reciprocating Engine,N,PEDLER1,-35.202321,138.502094
Banimboola Power Station,,VIC1,,,,13,12.85,,"5.3, 2.25","1-2, 3",AGL Hydro Partnership,Generator,Market,Non-Scheduled,Hydro,Water,Renewable,Hydro - Gravity,Y,BAPS,-36.534209,147.459426
Southbank Institute Of Technology Unit 1 Plant,,QLD1,,,,1,1,,1,1,Secure Energy Pty Ltd,Generator,Market,Non-Scheduled,Fossil,Diesel,Combustion,Compression Reciprocating Engine,N,STHBKTEC,-27.47511,153.03597
Brooklyn Landfill Gas Power Station,,VIC1,,,,2.83,2.83,,1.15,1,EDL LFG (Vic) Pty Ltd,Generator,Market,Non-Scheduled,Renewable,Landfill Gas,Combustion,Spark Ignition,N,BROOKLYN,-37.817967,144.831876
Nine Network Willoughby Plant,,NSW1,,,,2,3.2,,1.06,3-Jan,EnerNOC Pty Ltd,Generator,Market,Non-Scheduled,Fuel Oil,Diesel,Combustion,Compression Reciprocating Engine,N,NINEWIL1,-33.81096413,151.1966227
Tatiara Bordertown Plant,,SA1,,,,1,0.5,,0.5,1,EnerNOC Pty Ltd,Generator,Market,Non-Scheduled,Fuel Oil,Diesel,Combustion,Compression Reciprocating Engine,N,TATIARA1,-36.32655639,140.7367694
"Grange Avenue Power Station, Grange Avenue Landfill Gas Power Station",,NSW1,,,,3.26,3.26,,"2, 1.26","1, 1","AGL Sales (Queensland Electricity) Pty Limited, EDL LFG (NSW) Pty Ltd",Generator,Market,Non-Scheduled,Renewable/ Biomass / Waste,Landfill Methane / Landfill Gas,Combustion,"Compression Reciprocating Engine, Spark Ignition Reciprocating Engine",N,GRANGEAV,-33.702938,150.831233
Oaky Creek 2 Waste Coal Mine Gas Power Station Units 1-15,,NSW1,,,,15,15,,3,5-Jan,EDL (OCI) Pty Ltd,Generator,Market,Non-Scheduled,Fossil,Waste Coal Mine Gas,Combustion,Spark Ignition,Y,OAKY2,-22.987776,148.581702
Capital East Solar Farm,,NSW1,,,,1,1,,"0.013, 0.011, 0.168","1-2, 3, 4",Infigen Energy  Holdings Pty Ltd,Generator,Market,Non-Scheduled,Solar,Solar PV,Renewable,PV - Panels,N,CESF1,-35.2018,149.5083
Lucas Heights 2 LFG Power Station,,NSW1,,,,13,13,,1.15,11-Jan,EDL LFG (NSW) Pty Ltd,Generator,Market,Non-Scheduled,Renewable/ Biomass / Waste,Landfill Methane / Landfill Gas,Combustion,Compression Reciprocating Engine,N,LUCAS2S2,-34.048146,150.973882
William Hovell Hydro Power Station,,VIC1,,,,2,2,0,1.5,1,Pacific Hydro Investments Pty Ltd,Generator,Market,Non-Scheduled,Hydro,Water,Renewable,Run of River,N,WILLHOV1,-36.913177,146.391572
Mugga Lane Solar Park,,NSW1,,,,12,12,,12.85,1,Mugga Lane Solar Park Pty Ltd,Generator,Market,Non-Scheduled,Solar,Solar PV,Renewable,Photovoltaic Flat Panel,N,MLSP,-35.3988,149.146053
Eastern Creek Power Station,,NSW1,,,,5,5.4,,1.35,4-Jan,EDL LFG (NSW) Pty Ltd,Generator,Market,Non-Scheduled,Renewable/ Biomass / Waste,Landfill Methane / Landfill Gas,Combustion,Compression Reciprocating Engine,N,EASTCRK,-33.814157,150.853702
Longford Plant,,VIC1,,,,44.8,44,,"10.2, 7, 2.5, 2.6, 6.5","1, 2-3, 4-5, 6, 7-8",Origin Energy Electricity Limited,Generator,Market,Non-Scheduled,Fossil,Natural Gas,Combustion,Open Cycle Gas turbines (OCGT),N,LONGFORD,-38.164,147.087
Corio Landfill Gas Power Station,,VIC1,,,,1,1,0,1,1,EDL LFG (VIC) Pty Ltd,Generator,Market,Non-Scheduled,Renewable/ Biomass / Waste,Landfill Methane / Landfill Gas,Combustion,Spark Ignition Reciprocating Engine,N,CORIO1,-38.05865888,144.4055757
"Torrens Island Power Station ""A""",,SA1,2021-09-29T14:00:00+0000,,,120,120,20,120,1,AGL SA Generation Pty Limited,Generator,Market,Scheduled,Fossil,Natural Gas / Fuel Oil,Combustion,Steam Sub-Critical,N,TORRA1,-34.806844,138.521322
Broadmeadows Landfill Gas Power Station,,VIC1,,,,5,5,,1,5-Jan,EDL LFG (Vic) Pty Ltd,Generator,Market,Non-Scheduled,Renewable/ Biomass / Waste,Landfill Methane / Landfill Gas,Combustion,Spark Ignition Reciprocating Engine,N,BROADMDW,-37.687786,144.966319
Eildon Pondage Hydro Power Station,,VIC1,,,,5,5,0,4.5,3,Pacific Hydro Investments Pty Ltd,Generator,Market,Non-Scheduled,Hydro,Water,Renewable,Run of River,N,EILDON3,-37.222005,145.921452
Terminal Storage Mini Hydro Power Station,,SA1,,,,2,2.5,,2.5,1,Hydro-Electric Corporation trading as Hydro Tasmania,Generator,Market,Non-Scheduled,Hydro,Water,Renewable,Hydro - Gravity,N,TERMSTOR,-34.839323,138.711226
Western Suburbs League Club (Campbelltown) Plant,,NSW1,,,,1,1,,1,1,EnerNOC Pty Ltd,Generator,Market,Non-Scheduled,Fuel Oil,Diesel,Combustion,Compression Reciprocating Engine,N,WESTCBT1,-34.051326,150.83286
Whitwood Road Renewable Energy Facility,,QLD1,,,,1,1,,1.1,1,Origin Energy Electricity Limited,Generator,Market,Non-Scheduled,Renewable/ Biomass / Waste,Landfill Methane / Landfill Gas,Combustion,Compression Reciprocating Engine,N,WHIT1,-27.659014,152.823743
Moranbah Generation Project,,QLD1,,,,13,12.56,,1.57,8-Jan,AGL Hydro Partnership,Generator,Market,Non-Scheduled,Fossil,Coal Seam Methane,Combustion,Compression Reciprocating Engine,N,MORANBAH,-21.98513021,148.0246472
Wilga Park A Power Station,,NSW1,,,,10,10,,1.67 (average),6,SANTOS NSW (NARRABRI POWER) PTY LTD,Generator,Market,Non-Scheduled,Fossil,Coal Seam Methane,Combustion,Spark Ignition Reciprocating Engine,N,WILGAPK,-30.363437,149.677153
Oaky Creek  Power Station,,QLD1,,,,20,20,,"1.037, 3","1-14, 15-16",Origin Energy Electricity Limited,Generator,Market,Non-Scheduled,Fossil,Coal Seam Methane,Combustion,Compression Reciprocating Engine,Y,OAKYCREK,-22.987776,148.581702
Kincumber Landfill Site,,NSW1,,,,1,1.064,,1.064,1,AGL Hydro Partnership,Generator,Market,Non-Scheduled,"Landfill, Biogas","Landfill, Biogas",Renewable,"Landfill, Biogas",N,KINCUM1,-33.477324,151.402636
Browns Plains Land Fill Gas Power Station,,QLD1,,,,2.18,2.18,,1.9,2-Jan,EDL LFG (Qld) Pty Ltd,Generator,Market,Non-Scheduled,Renewable/ Biomass / Waste,Landfill Methane / Landfill Gas,Combustion,Spark Ignition Reciprocating Engine,N,BPLANDF1,-27.672131,153.066346
Midlands Power Station,,TAS1,,,,7,6,0,6,1,Tasmanian Irrigation Pty Ltd,Generator,Non-Market,Non-Scheduled,Hydro,Hydro,Renewable,Hydro - Gravity,N,MIDLDPS1,-42.11423,147.30917
Daandine Power Station,,QLD1,,,,33,33,,3,11-Jan,Arrow Energy Trading Pty Ltd,Generator,Market,Non-Scheduled,Fossil,Coal Seam Methane,Combustion,Compression Reciprocating Engine,N,DAANDINE,-27.08631997,150.9430055
Wonthaggi Wind Farm,,VIC1,,,,12,12,,2,6-Jan,Progressive Green Pty Ltd,Generator,Market,Non-Scheduled,Wind,Wind,Renewable,Wind - Onshore,Y,WONWP,-38.603736,145.546167
Suncoast Gold Macadamias,,QLD1,,,,1,1.5,,1.5,1,AGL Hydro Partnership,Generator,Market,Non-Scheduled,Renewable/ Biomass / Waste,Macadamia Nut Shells,Combustion,Steam Sub-Critical,N,SUNCOAST,-26.226125,152.698102
Coonooer Bridge Wind Farm,,VIC1,,,,20,20,,19.8,1,Coonooer Bridge Wind Farm Pty tld,Generator,Market,Non-Scheduled,Wind,Wind,Renewable,Wind - Onshore,N,CBWF1,-36.436,143.362
Hepburn Wind Farm,,VIC1,,,,4.1,4.1,,2.05,2-Jan,Mt Mercer Windfarm Pty Ltd,Generator,Market,Non-Scheduled,Wind,Wind,Renewable,Wind - Onshore,N,HEPWIND1,-37.425,144.12
Wyangala B Power Station,,NSW1,,,,4,4,,4,1,Hydro Power Pty Limited,Generator,Market,Non-Scheduled,Hydro,Water,Renewable,Hydro - Gravity,N,WYANGALB,-33.980989,148.947306
Liddell Power Station,,NSW1,2022-04-01T14:00:00+0000,,,550,500,110,500,3,AGL Macquarie Pty Limited,Generator,Market,Scheduled,Fossil,Black Coal,Combustion,Steam Sub-Critical,N,LD03,-32.371267,150.97757
Wyndham Waste Disposal Facility,,VIC1,,,,1,1,,1,1,EnergyAustralia Pty Ltd,Generator,Market,Non-Scheduled,Renewable/ Biomass / Waste,Landfill Methane / Landfill Gas,Combustion,Compression Reciprocating Engine,N,WYNDW,-37.937488,144.590179
Wingfield 1 Landfill Gas Power Station Units 1-4,,SA1,,,,5,5,0,1.03,4-Jan,EDL LFG (SA) Pty Ltd,Generator,Market,Non-Scheduled,Renewable/ Biomass / Waste,Landfill Methane / Landfill Gas,Combustion,Spark Ignition Reciprocating Engine,N,WING1_1,-34.832081,138.548903
Springvale Landfill Gas Power Station,,VIC1,,,,4.2,4.2,0,1.05,4-Jan,EDL LFG (VIC) Pty Ltd,Generator,Market,Non-Scheduled,Renewable/ Biomass / Waste,Landfill Methane / Landfill Gas,Combustion,Spark Ignition Reciprocating Engine,N,SVALE1,-37.973297,145.139635
Toora Wind Farm,,VIC1,,,,21,21,,1.75,12-Jan,Toora Wind Farm Pty Ltd,Generator,Market,Non-Scheduled,Wind,Wind,Renewable,Wind - Onshore,Y,TOORAWF,-38.64506,146.344132
